City,country,Date,Latitude,Longitude,Max_temp,Humidity,Cloudiness,Wind Speed
Mataura,NZ,1650139304,-46.1927,168.8643,276.75,96,68,1.22
Cidreira,BR,1650139304,-30.1811,-50.2056,292.73,68,100,3.42
Novy Urengoy,RU,1650139121,66.0833,76.6333,264.11,92,100,7.57
Dikson,RU,1650139305,73.5069,80.5464,261.8,94,100,7.26
Juan Lacaze,UY,1650139305,-34.4342,-57.4381,293.21,65,29,5.74
Rundu,NA,1650139306,-17.9333,19.7667,293.61,78,100,3.31
Sola,VU,1650139306,-13.8833,167.55,300.79,70,100,1.16
Bata,GQ,1650139307,1.8639,9.7658,298.71,89,100,2.14
Hobart,AU,1650139147,-42.8794,147.3294,284.64,89,100,0.45
Santiago de Cao,PE,1650139308,-7.9589,-79.2392,293.74,80,67,7.17
Kununurra,AU,1650139120,-15.7667,128.7333,297.14,94,19,2.06
Chapais,CA,1650139308,49.7834,-74.8492,275.03,70,100,5.26
Joshīmath,IN,1650139309,30.5667,79.5667,284.5,48,8,3.44
Praia da Vitória,PT,1650139309,38.7333,-27.0667,289.68,78,17,3.41
Avarua,CK,1650139310,-21.2078,-159.775,300.18,83,40,1.03
São João da Barra,BR,1650139060,-21.6403,-41.0511,298.2,66,89,7.66
Bredasdorp,ZA,1650139310,-34.5322,20.0403,288.51,72,0,6.54
Samaná,DO,1650139311,19.2056,-69.3369,299.5,74,92,6.12
Kaitangata,NZ,1650139311,-46.2817,169.8464,278.37,89,77,1.87
Albany,US,1650139167,42.6001,-73.9662,278.42,85,100,1.79
Bengkulu,ID,1650139312,-3.8004,102.2655,298.11,90,100,1.75
Tuktoyaktuk,CA,1650139312,69.4541,-133.0374,256.36,81,28,2.25
Buala,SB,1650139313,-8.145,159.5921,299.67,80,100,2.17
Saint Paul Harbor,US,1650139313,57.79,-152.4072,276.88,81,100,8.75
Hilo,US,1650139313,19.7297,-155.09,294.28,99,100,2.24
Port Alfred,ZA,1650139314,-33.5906,26.891,289.36,83,100,5.75
Los Algarrobos,PA,1650139314,8.5,-82.4333,301.83,69,100,3.26
Nishihara,JP,1650139315,26.1842,127.7558,291.75,59,73,2.57
Hithadhoo,MV,1650139315,-0.6,73.0833,301.58,67,78,2.81
Cairns,AU,1650139084,-16.9167,145.7667,295.12,88,40,5.14
Qaanaaq,GL,1650139316,77.484,-69.3632,250.11,78,74,2.11
São Filipe,CV,1650139316,14.8961,-24.4956,295.04,78,58,6.05
Busselton,AU,1650139317,-33.65,115.3333,286.08,84,21,4.43
Severo-Kuril'sk,RU,1650139317,50.6789,156.125,272.58,81,100,6.39
Meulaboh,ID,1650139317,4.1363,96.1285,299.11,84,30,0.33
Puerto Ayora,EC,1650139318,-0.7393,-90.3518,298.9,80,96,3.47
Rikitea,PF,1650139318,-23.1203,-134.9692,298.76,71,4,6.94
Vaini,TO,1650139319,-21.2,-175.2,300.67,69,92,4.85
Ust-Kuyga,RU,1650139173,70.0167,135.6,248.14,100,99,0.51
Pevek,RU,1650139320,69.7008,170.3133,259.04,93,100,2.18
Luena,AO,1650139320,-11.7833,19.9167,289.81,96,82,1.53
Pitimbu,BR,1650139321,-7.4706,-34.8086,301.16,77,6,3.93
Thompson,CA,1650139321,55.7435,-97.8558,269.53,58,100,1.35
Ambilobe,MG,1650139322,-13.2,49.05,296.19,87,10,1.92
Yellowknife,CA,1650139227,62.456,-114.3525,261.24,55,51,4.47
Ostrovnoy,RU,1650139322,68.0531,39.5131,272.46,86,100,5.97
Mossamedes,AO,1650139323,-15.1961,12.1522,297.05,70,26,1.06
Arlit,NE,1650139323,18.7369,7.3853,301.08,10,100,4.41
Jamestown,US,1650139025,42.097,-79.2353,281.8,42,30,3.13
New Norfolk,AU,1650139324,-42.7826,147.0587,284.36,76,100,1.2
Ushuaia,AR,1650139325,-54.8,-68.3,280.09,61,65,0.61
Castro,BR,1650139277,-24.7911,-50.0119,291.49,65,0,1.12
Cayenne,GF,1650139007,4.9333,-52.3333,301.53,3,75,4.63
Saint-Philippe,RE,1650139325,-21.3585,55.7679,297.1,81,52,5.45
Saint-Augustin,CA,1650139326,51.226,-58.6502,273.43,99,100,4.75
Punta Arenas,CL,1650139326,-53.15,-70.9167,282.1,66,100,3.24
Portland,US,1650139120,45.5234,-122.6762,283.39,60,81,3.13
Kuril'sk,RU,1650139327,45.2333,147.8833,272.02,87,52,3.72
Klaksvík,FO,1650139328,62.2266,-6.589,282.66,90,100,9.95
Vostok,RU,1650138765,46.4856,135.8833,270.65,77,5,3.09
Bluff,NZ,1650139328,-46.6,168.3333,276.93,80,96,3.48
George Town,MY,1650139329,5.4112,100.3354,300.11,89,20,0.0
Beira,MZ,1650139329,-19.8436,34.8389,301.2,78,40,7.72
Nur-Sultan,KZ,1650139217,51.1801,71.446,287.12,51,0,3.0
Chokurdakh,RU,1650139330,70.6333,147.9167,247.48,100,99,1.11
Saldanha,ZA,1650139058,-33.0117,17.9442,291.18,58,0,5.09
Cape Town,ZA,1650139331,-33.9258,18.4232,289.21,66,0,4.47
Harper,LR,1650139331,4.375,-7.7169,299.62,81,98,3.18
Novikovo,RU,1650139332,51.1537,37.8879,282.97,88,100,1.05
Nanning,CN,1650139206,22.8167,108.3167,287.54,87,100,2.29
Faanui,PF,1650138748,-16.4833,-151.75,300.87,72,4,6.93
San Patricio,US,1650139333,28.017,-97.5169,303.54,52,85,5.13
Tasiilaq,GL,1650139333,65.6145,-37.6368,275.24,97,100,7.44
Vestmannaeyjar,IS,1650139210,63.4427,-20.2734,281.47,94,99,8.24
Sangar,RU,1650139334,63.9242,127.4739,253.42,99,99,0.38
Boyabat,TR,1650139335,41.4689,34.7667,287.05,62,98,0.8
Oriximiná,BR,1650139335,-1.7656,-55.8661,300.66,83,100,1.16
Souillac,MU,1650139335,-20.5167,57.5167,297.93,83,36,6.31
Eydhafushi,MV,1650139336,5.1033,73.0708,302.27,74,73,4.12
Chui,UY,1650139336,-33.6971,-53.4616,292.28,58,77,3.63
Senahú,GT,1650139337,15.4,-89.8333,299.9,43,71,3.0
Yulara,AU,1650139337,-25.2406,130.9889,292.5,53,3,3.23
Alofi,NU,1650139338,-19.0595,-169.9187,300.74,74,29,4.43
Haines Junction,CA,1650139338,60.7522,-137.5108,272.33,71,100,0.35
Hamilton,US,1650138862,39.1834,-84.5333,289.75,57,58,3.58
Ponta do Sol,PT,1650139339,32.6667,-17.1,293.77,48,100,3.39
Norman Wells,CA,1650139339,65.282,-126.8329,262.91,73,79,1.65
Acapulco de Juárez,MX,1650139290,16.8634,-99.8901,303.89,51,9,5.91
Bambous Virieux,MU,1650139340,-20.3428,57.7575,298.27,81,45,7.3
Herat Province,AF,1650139340,34.5,62.0,285.55,51,3,4.47
Christchurch,NZ,1650139341,-43.5333,172.6333,284.78,82,75,2.06
Boende,CD,1650139342,-0.2167,20.8667,296.06,87,21,1.35
Hualmay,PE,1650139342,-11.0964,-77.6139,294.75,73,100,5.6
Oussouye,SN,1650139342,12.485,-16.5469,296.21,63,16,6.26
Airai,TL,1650139343,-8.9266,125.4092,288.33,93,62,1.17
Sitka,US,1650139343,57.0531,-135.33,279.96,59,84,1.46
Tautira,PF,1650139344,-17.7333,-149.15,300.37,74,16,6.17
Vorotynets,RU,1650139344,56.0603,45.8633,272.86,98,100,7.78
Saskylakh,RU,1650139345,71.9167,114.0833,261.37,93,99,6.32
Abhā,SA,1650139345,18.2164,42.5053,291.38,46,3,2.03
Playa Vicente,MX,1650139345,17.8333,-95.8167,314.46,19,40,3.14
Gadsden,US,1650139126,34.0143,-86.0066,294.32,86,100,1.32
Aykhal,RU,1650139346,66.0,111.5,269.48,97,100,4.93
Cabo San Lucas,MX,1650139346,22.8909,-109.9124,301.58,44,100,4.09
Mayya,RU,1650139347,61.7333,130.2811,265.77,99,87,1.01
Longyearbyen,SJ,1650138777,78.2186,15.6401,264.28,91,90,2.56
Esperance,AU,1650139347,-33.8667,121.9,290.06,68,100,6.28
Maniitsoq,GL,1650138977,65.4167,-52.9,269.14,61,27,3.23
East London,ZA,1650139233,-33.0153,27.9116,289.84,76,100,4.04
Saint George,US,1650139348,37.1041,-113.5841,299.27,14,0,15.95
Salekhard,RU,1650139349,66.53,66.6019,258.48,92,98,1.82
Tomatlán,MX,1650139349,19.9333,-105.25,305.94,30,100,4.33
Toora-Khem,RU,1650139349,52.4675,96.11,273.12,89,56,1.16
Hasaki,JP,1650139350,35.7333,140.8333,279.37,63,100,3.81
Pangai,TO,1650139350,-19.8,-174.35,300.79,77,29,6.05
Kapaa,US,1650139351,22.0752,-159.319,297.66,83,91,1.79
Wattegama,LK,1650139351,6.7989,81.4808,297.06,95,77,1.37
Guerrero Negro,MX,1650139352,27.9769,-114.0611,293.07,62,100,9.53
Vila Franca do Campo,PT,1650139352,37.7167,-25.4333,290.38,82,100,3.58
Plátanos,GR,1650139353,37.6667,21.6167,290.26,61,100,4.61
Morondava,MG,1650139353,-20.2833,44.2833,301.04,83,70,2.55
Pangnirtung,CA,1650139354,66.1451,-65.7125,260.94,87,100,0.37
Atuona,PF,1650139354,-9.8,-139.0333,299.51,76,29,7.76
Makkah al Mukarramah,SA,1650139354,21.4267,39.8261,301.72,34,0,0.55
Río Gallegos,AR,1650139355,-51.6226,-69.2181,284.99,56,100,5.45
Şebinkarahisar,TR,1650139355,40.2883,38.4236,280.59,56,3,1.23
Arraial do Cabo,BR,1650139356,-22.9661,-42.0278,296.92,64,0,8.18
Kiryat Gat,IL,1650138952,31.61,34.7642,290.47,42,32,1.83
Half Moon Bay,US,1650138803,37.4636,-122.4286,287.09,81,75,9.26
Tiksi,RU,1650139357,71.6872,128.8694,248.31,99,76,1.85
Butaritari,KI,1650139357,3.0707,172.7902,300.28,79,45,6.43
Mahajanga,MG,1650139115,-15.7167,46.3167,299.16,78,20,2.57
Hadishahr,AZ,1650139358,38.8431,45.6635,283.42,55,18,2.4
Luancheng,CN,1650138982,37.8792,114.6517,278.24,34,10,2.24
Tezu,IN,1650139358,27.9167,96.1667,291.84,95,100,2.36
Maragogi,BR,1650139179,-9.0122,-35.2225,300.68,81,7,5.14
Belyy Yar,RU,1650139359,53.6039,91.3903,277.09,48,7,1.0
Lagoa,PT,1650139359,39.05,-27.9833,288.32,73,47,4.93
Sadská,CZ,1650139360,50.136,14.9863,279.67,63,11,2.2
Porosozero,RU,1650139360,62.7191,32.727,269.68,93,98,1.47
Pec,XK,1650139361,42.6591,20.2883,282.29,92,100,2.13
Khatanga,RU,1650139361,71.9667,102.5,265.58,97,100,2.89
Yumen,CN,1650139362,40.2833,97.2,277.57,23,0,5.04
Aklavik,CA,1650139362,68.2191,-135.0107,260.84,80,17,5.19
Zeya,RU,1650139363,53.75,127.2667,269.26,73,34,2.14
Serebryansk,KZ,1650139363,49.6925,83.2892,273.32,87,2,2.29
Ahipara,NZ,1650139364,-35.1667,173.1667,290.64,84,100,4.94
Georgiyevka,KZ,1650139365,43.0369,74.7114,286.17,71,10,3.0
Sittwe,MM,1650139365,20.15,92.9,300.14,82,27,1.31
Narsaq,GL,1650139366,60.9167,-46.05,278.27,74,2,2.01
Bahía Blanca,AR,1650139214,-38.7196,-62.2724,295.14,39,59,1.52
Pyskowice,PL,1650139198,50.4,18.6333,278.64,65,49,2.68
Barrow,US,1650139366,71.2906,-156.7887,257.16,78,0,8.75
Provideniya,RU,1650139367,64.3833,-173.3,272.89,92,100,6.58
Kurumkan,RU,1650139367,54.3,110.3,274.02,71,100,0.99
Kupang,ID,1650139368,-10.1667,123.5833,298.46,84,58,2.85
Upernavik,GL,1650139368,72.7868,-56.1549,252.41,89,30,6.21
Lebu,CL,1650139368,-37.6167,-73.65,288.1,73,8,6.62
Bilibino,RU,1650139369,68.0546,166.4372,262.29,94,79,1.37
Quatre Cocos,MU,1650139369,-20.2078,57.7625,298.2,82,24,7.45
Mount Gambier,AU,1650139370,-37.8333,140.7667,293.09,39,100,5.97
Codrington,AU,1650138923,-38.2667,141.9667,292.88,41,100,8.19
Shelburne,CA,1650139370,44.0787,-80.2041,274.27,43,100,6.78
Torbay,CA,1650139371,47.6666,-52.7314,280.78,66,1,7.92
Kahului,US,1650139371,20.8947,-156.47,295.28,97,100,4.02
Douentza,ML,1650139372,14.9951,-2.9517,303.23,14,98,1.24
North Bend,US,1650139282,43.4065,-124.2243,283.91,100,19,5.62
Numan,NG,1650139373,9.4667,12.0333,307.68,37,8,1.31
Mogadishu,SO,1650139235,2.0371,45.3438,301.28,81,100,6.68
Geraldton,AU,1650139373,-28.7667,114.6,292.38,77,100,5.14
Pouembout,NC,1650139374,-21.1333,164.9,294.98,86,0,1.53
Jaciara,BR,1650139350,-15.9653,-54.9683,301.34,67,34,1.6
Alice Springs,AU,1650139280,-23.7,133.8833,293.83,32,24,0.0
Isangel,VU,1650139375,-19.55,169.2667,300.01,79,9,1.9
Hermanus,ZA,1650139375,-34.4187,19.2345,288.04,74,2,8.42
Sangmélima,CM,1650139376,2.9333,11.9833,294.12,95,28,0.48
Cherskiy,RU,1650139376,68.75,161.3,264.57,94,100,3.59
Iqaluit,CA,1650139376,63.7506,-68.5145,260.76,78,100,1.34
Molina,CL,1650139377,-35.1167,-71.2833,297.53,27,0,3.0
Beloha,MG,1650139377,-25.1667,45.05,296.41,88,6,2.18
Hong Kong,HK,1650139275,22.2855,114.1577,294.26,77,100,7.15
Mahébourg,MU,1650139289,-20.4081,57.7,298.29,81,54,7.2
Sant Feliu de Guíxols,ES,1650139378,41.7833,3.0333,290.69,45,71,1.66
Bethel,US,1650139378,41.3712,-73.414,290.59,52,20,4.63
Port Elizabeth,ZA,1650139379,-33.918,25.5701,289.44,84,95,1.34
Avera,US,1650139379,33.194,-82.5271,295.28,75,100,3.74
Cilegon,ID,1650139380,-6.0174,106.0538,298.98,84,86,1.61
Te Anau,NZ,1650139380,-45.4167,167.7167,277.24,93,93,0.55
Padang,ID,1650139381,-0.9492,100.3543,298.76,87,97,1.55
Kahramanmaraş Province,TR,1650139381,38.0,37.0,283.55,46,100,0.7
Comodoro Rivadavia,AR,1650139350,-45.8667,-67.5,288.68,52,6,6.03
Itoman,JP,1650139382,26.1247,127.6694,292.16,59,69,2.57
Barcelos,PT,1650139226,41.5388,-8.6151,289.93,91,37,2.24
Farafangana,MG,1650139383,-22.8167,47.8333,296.98,84,21,2.71
San Jose,US,1650139168,37.3394,-121.895,290.39,67,75,4.12
Fukuechō,JP,1650139384,32.6881,128.8419,287.42,59,80,5.48
Leningradskiy,RU,1650138819,69.3833,178.4167,257.39,96,65,3.53
Hailey,US,1650139384,43.5196,-114.3153,275.03,83,100,6.17
Taoudenni,ML,1650139024,22.6783,-3.9836,301.57,15,0,4.96
Pedra Azul,BR,1650139385,-16.0053,-41.2972,293.65,88,100,2.5
Kotapārh,IN,1650139385,19.15,82.35,298.78,48,88,2.05
Butembo,CD,1650139386,0.15,29.2833,287.39,98,100,1.14
Kudahuvadhoo,MV,1650139386,2.6708,72.8944,301.66,77,87,3.87
Burns Lake,CA,1650139223,54.2331,-125.7533,277.22,44,99,0.86
Poum,NC,1650139387,-20.2333,164.0167,298.64,69,3,3.36
Hambantota,LK,1650139387,6.1241,81.1185,300.11,81,42,2.86
Caravelas,BR,1650139388,-17.7125,-39.2481,298.45,69,100,5.04
Oktyabr'skiy,RU,1650139388,54.4815,53.471,274.32,80,56,1.37
Rumonge,BI,1650139389,-3.9736,29.4386,294.73,83,33,1.82
Margate,GB,1650139389,51.3813,1.3862,282.93,83,11,1.34
Port Lincoln,AU,1650139390,-34.7333,135.8667,291.66,85,100,5.37
Mnogovershinnyy,RU,1650139390,53.9353,139.9242,268.41,97,100,2.17
Ambovombe,MG,1650139390,-25.1667,46.0833,296.2,89,8,2.3
Nabire,ID,1650139391,-3.3667,135.4833,297.7,93,100,1.32
Puerto Baquerizo Moreno,EC,1650139368,-0.9,-89.6,297.98,82,29,3.33
Carman,CA,1650139392,49.4992,-98.0016,268.09,76,74,3.01
Sidi Ali,DZ,1650139392,36.0998,0.4206,286.91,71,0,2.23
Tilichiki,RU,1650139392,60.4667,166.1,269.3,88,98,1.97
Mar del Plata,AR,1650139393,-38.0023,-57.5575,291.41,83,0,6.71
Barkhan,PK,1650139393,29.8977,69.5256,296.43,11,88,1.1
Marzuq,YE,1650139394,14.4,46.4667,295.23,47,0,2.54
Ocho Rios,JM,1650139210,18.4025,-77.1048,301.93,76,42,3.27
Fairbanks,US,1650139204,64.8378,-147.7164,271.36,36,48,0.45
Lompoc,US,1650139288,34.6391,-120.4579,289.87,73,84,6.26
Vanderhoof,CA,1650139395,54.0166,-124.0198,277.72,37,100,1.14
Salalah,OM,1650139395,17.0151,54.0924,301.2,83,20,1.54
Am Timan,TD,1650139396,11.0297,20.2827,307.1,26,36,1.78
Ilulissat,GL,1650139396,69.2167,-51.1,265.16,62,75,4.12
Valentín Gómez Farías,MX,1650139396,28.2167,-106.5833,301.7,4,100,1.25
Baykit,RU,1650139397,61.67,96.37,276.13,98,100,1.88
Leer,SS,1650139397,8.3018,30.1418,301.19,55,100,3.74
Pacific Grove,US,1650139398,36.6177,-121.9166,287.01,84,75,4.92
Port-Cartier,CA,1650139398,50.0334,-66.8654,278.01,82,80,5.18
Port Macquarie,AU,1650139399,-31.4333,152.9167,286.98,87,12,2.82
Ribeira Grande,PT,1650139285,38.5167,-28.7,290.37,67,40,4.63
Luganville,VU,1650139399,-15.5333,167.1667,298.99,85,22,0.71
Kishtwār,IN,1650139400,33.3167,75.7667,284.3,53,2,2.78
Iralaya,HN,1650139400,15.0,-83.2333,301.34,65,77,3.1
Karatau,KZ,1650139401,43.1667,70.4667,289.86,43,92,1.35
Natal,BR,1650139128,-5.795,-35.2094,303.27,74,75,6.17
Lakes Entrance,AU,1650139402,-37.8811,147.981,287.63,69,93,2.74
Kaya,BF,1650139402,13.0917,-1.0844,304.27,28,100,1.69
Mushie,CD,1650139153,-3.0167,16.9,297.78,73,25,1.34
Sergeevka,KZ,1650139403,53.88,67.4158,281.71,62,100,2.93
Mae Sai,TH,1650139403,20.4335,99.8762,299.24,52,67,0.53
Chimbarongo,CL,1650139158,-34.7,-71.05,291.64,26,0,2.28
Pryazha,RU,1650139404,61.6926,33.6216,269.61,95,79,0.4
Iskateley,RU,1650139404,67.6803,53.1512,258.85,100,94,1.33
Auki,SB,1650139405,-8.7676,160.7034,298.39,87,93,1.84
Tuatapere,NZ,1650139405,-46.1333,167.6833,278.54,89,67,2.2
Simao,CN,1650139405,22.7886,100.9748,293.2,60,91,0.69
Banjar,ID,1650139406,-8.19,114.9675,298.61,90,87,1.22
‘Ewa Beach,US,1650139406,21.3156,-158.0072,297.34,79,75,4.63
Ola,RU,1650139407,59.5833,151.2833,262.96,78,6,3.48
Kumul,CN,1650139407,42.8,93.45,283.69,24,0,3.5
Hirara,JP,1650139408,24.8,125.2833,294.46,64,75,6.27
Waingapu,ID,1650139408,-9.6567,120.2641,299.28,87,67,2.53
Grindavik,IS,1650139409,63.8424,-22.4338,281.41,100,100,7.72
Ocós,GT,1650139409,14.5094,-92.1933,307.25,64,82,6.4
Moree,AU,1650139410,-29.4667,149.85,288.37,78,0,2.9
Samarai,PG,1650139410,-10.6167,150.6667,299.43,83,100,1.23
Ishigaki,JP,1650139410,24.3448,124.1572,294.47,65,89,7.45
Santa Fe,AR,1650139411,-31.6333,-60.7,296.18,43,83,1.34
Nantucket,US,1650139411,41.2835,-70.0995,285.75,76,0,8.75
Sirūr,IN,1650139412,18.8333,74.3833,301.85,32,0,3.6
Itarema,BR,1650139412,-2.9248,-39.9167,300.56,79,23,3.2
Port Augusta,AU,1650139413,-32.5,137.7667,293.12,41,2,2.88
Atlantic City,US,1650139413,39.3643,-74.4229,290.52,66,0,7.72
San Cristobal,VE,1650139414,7.7669,-72.225,301.25,57,100,3.15
Caconda,AO,1650139414,-13.7333,15.0667,289.44,90,100,0.94
Cedar City,US,1650139231,37.6775,-113.0619,289.48,24,7,11.17
Lüderitz,NA,1650139415,-26.6481,15.1594,290.7,61,0,6.27
Karratha,AU,1650139415,-20.7377,116.8463,301.4,42,40,3.22
Sept-Îles,CA,1650139280,50.2001,-66.3821,278.18,73,72,5.81
Anadyr,RU,1650139272,64.75,177.4833,266.14,91,83,5.28
Kahama,TZ,1650139416,-3.8333,32.6,290.43,95,98,2.23
Mountain Home,US,1650139416,43.133,-115.6912,285.86,100,75,0.0
Cockburn Town,TC,1650139417,21.4612,-71.1419,298.41,80,95,10.06
Melilla,ES,1650139417,35.2937,-2.9383,292.36,59,0,0.51
Klyuchi,RU,1650139417,52.2667,79.1667,284.95,33,8,5.38
Egvekinot,RU,1650139418,66.3167,-179.1667,263.97,87,100,4.96
Sur,OM,1650138855,22.5667,59.5289,303.67,45,0,2.81
Milas,TR,1650139418,37.3164,27.7839,288.79,44,0,1.03
Flinders,AU,1650139419,-34.5833,150.8552,286.51,91,2,1.79
Ballina,AU,1650139419,-28.8667,153.5667,289.8,99,73,3.88
Kerema,PG,1650139420,-7.9631,145.7785,298.4,87,100,1.14
Nikolskoye,RU,1650139420,59.7035,30.7861,273.79,82,73,1.36
Beringovskiy,RU,1650139421,63.05,179.3167,272.05,97,100,8.55
Touros,BR,1650139222,-5.1989,-35.4608,301.3,74,76,3.65
Griffith,US,1650139421,41.5284,-87.4237,281.14,51,75,6.69
County Wicklow,IE,1650139422,53.0,-6.4167,282.22,88,100,3.14
Tierralta,CO,1650139422,8.1736,-76.0592,303.01,74,90,4.76
Port Hedland,AU,1650139422,-20.3167,118.5667,297.18,64,13,0.0
Mount Isa,AU,1650139423,-20.7333,139.5,292.02,39,2,2.06
Roebourne,AU,1650139423,-20.7833,117.1333,301.49,39,26,2.83
Lorengau,PG,1650139424,-2.0226,147.2712,300.11,80,41,1.88
Tulum,MX,1650139424,20.2167,-87.4667,303.95,54,5,3.31
Verāval,IN,1650139425,20.9,70.3667,299.8,72,0,4.32
Yushu,CN,1650139425,44.8,126.5333,279.24,24,100,2.33
Faya,SA,1650139426,18.3851,42.4509,292.44,44,4,1.71
Valparaíso,CL,1650139342,-33.0393,-71.6273,288.41,70,1,4.29
Mehamn,NO,1650139426,71.0357,27.8492,277.12,93,100,15.43
Belaya Gora,RU,1650138994,68.5333,146.4167,253.44,100,90,1.2
Bagotville,AU,1650139427,-28.9833,153.4167,289.74,99,96,3.35
Katsuura,JP,1650139427,35.1333,140.3,284.96,69,100,4.92
Fengzhen,CN,1650139428,40.4394,113.1536,280.99,29,100,0.71
Ucluelet,CA,1650139428,48.9329,-125.5528,282.09,65,100,0.45
Bathsheba,BB,1650139429,13.2167,-59.5167,301.49,61,20,8.75
Tazovsky,RU,1650139429,67.4667,78.7,263.22,93,100,7.69
Kingman,US,1650139203,35.1894,-114.053,296.32,18,0,10.13
Masvingo,ZW,1650139430,-20.0637,30.8277,290.18,97,100,4.24
Korla,CN,1650139430,41.7597,86.1469,283.25,14,0,1.01
Sinnamary,GF,1650139431,5.3833,-52.95,300.05,77,99,4.83
Fayetteville,US,1650139059,35.0527,-78.8784,297.52,61,75,5.66
Rome,US,1650139231,43.2128,-75.4557,276.95,91,100,2.06
Siemiatycze,PL,1650139364,52.4272,22.8623,275.19,71,13,2.72
Bonavista,CA,1650139432,48.6499,-53.1147,279.03,77,5,3.75
Pingliang,CN,1650139432,35.5392,106.6861,278.29,79,100,3.1
Shingū,JP,1650139433,33.7333,135.9833,285.14,60,100,2.6
Bang Rakam,TH,1650139433,16.7585,100.1174,304.8,27,63,3.41
Port Jervis,US,1650139434,41.3751,-74.6927,289.66,59,100,3.77
Lucea,JM,1650139434,18.451,-78.1736,300.85,67,11,0.66
Bo Phloi,TH,1650139434,14.3236,99.5161,300.07,70,15,1.71
Lake Cowichan,CA,1650139435,48.825,-124.0546,282.83,66,100,0.87
Fes,MA,1650139435,34.0372,-4.9998,292.29,32,0,3.6
Sambava,MG,1650139436,-14.2667,50.1667,297.81,85,2,5.65
Altamira,BR,1650139197,-3.2033,-52.2064,304.2,70,75,3.6
Mays Chapel,US,1650139436,39.4332,-76.6494,297.22,49,100,4.3
Pervomayskoye,RU,1650139437,43.919,46.7102,281.98,78,1,3.22
Formosa,AR,1650139437,-26.1775,-58.1781,296.14,53,0,2.06
Bjørnevatn,NO,1650139438,69.6672,29.9847,276.34,75,100,8.23
Ancud,CL,1650138877,-41.8697,-73.8203,291.61,67,26,1.94
Arawa,PG,1650139438,-6.2132,155.5367,297.86,90,100,0.55
Makakilo City,US,1650139439,21.3469,-158.0858,296.75,79,75,4.63
San Andrés,CO,1650139440,12.5847,-81.7006,303.16,66,40,5.14
Soyo,AO,1650139440,-6.1349,12.3689,299.53,86,96,2.75
Tarancón,ES,1650139441,40.0085,-3.0073,288.63,50,1,3.36
Pathalgaon,IN,1650139226,22.5667,83.4667,299.71,16,11,1.13
Eureka,US,1650139442,40.8021,-124.1637,285.02,64,27,3.58
Dunedin,NZ,1650139442,-45.8742,170.5036,282.48,69,52,0.89
Puro,PH,1650139442,12.4841,123.3827,298.91,85,11,2.99
Bubaque,GW,1650139443,11.2833,-15.8333,297.44,73,6,10.45
Batouri,CM,1650139443,4.4333,14.3667,297.82,69,71,1.79
Constitución,CL,1650139256,-35.3333,-72.4167,290.22,62,1,4.09
Cheltenham,GB,1650139367,51.9,-2.0833,288.25,72,100,2.1
Khovd,MN,1650139444,48.0056,91.6419,277.56,16,0,1.6
Mlowo,TZ,1650139445,-9.0,32.9833,288.14,96,99,2.03
Kirakira,SB,1650139445,-10.4544,161.9205,299.92,80,72,2.5
Bajil,YE,1650139446,15.0584,43.2851,302.67,50,17,2.87
Ljungby,SE,1650139446,56.8332,13.9408,281.02,67,97,3.03
Batagay-Alyta,RU,1650139447,67.8006,130.4114,249.42,99,96,2.45
Bagra,IN,1650139447,23.7333,86.3167,301.2,43,15,1.99
Mandalgovi,MN,1650139447,45.7625,106.2708,274.95,47,100,6.07
Arrondissement de Saint-Denis,FR,1650139448,48.9167,2.3333,288.34,55,0,4.63
Gmina Strzelin,PL,1650139286,50.7816,17.0648,277.37,73,56,2.42
Nueve de Julio,AR,1650139344,-35.4444,-60.8831,295.99,33,59,1.93
Conceição do Araguaia,BR,1650139449,-8.2578,-49.2647,302.83,73,67,0.98
Shahrud,IR,1650139152,36.4182,54.9763,282.93,72,97,4.78
São José da Coroa Grande,BR,1650139449,-8.8978,-35.1478,300.92,79,7,5.02
Doka,SD,1650139450,13.5167,35.7667,303.58,36,100,2.49
Talcahuano,CL,1650139450,-36.7167,-73.1167,287.97,72,0,3.6
Balkhash,KZ,1650139450,46.844,74.9804,282.97,37,13,4.56
Richards Bay,ZA,1650139451,-28.783,32.0377,291.33,85,100,2.95
Byron Bay,AU,1650139263,-28.65,153.6167,289.79,86,55,4.03
Saint-Pierre,RE,1650139452,-21.3393,55.4781,296.96,77,0,3.6
Umm Kaddadah,SD,1650139452,13.6017,26.6876,302.38,6,99,4.7
Northam,GB,1650139452,51.0333,-4.2167,286.81,72,99,4.37
Buenos Aires,AR,1650139453,-34.6132,-58.3772,293.74,63,0,5.14
Chekhov,RU,1650139453,55.1431,37.4711,275.16,86,100,6.36
Cananea,MX,1650139454,30.95,-110.3,297.62,8,100,7.59
Ixtapa,MX,1650139454,20.7,-105.2,299.72,61,40,4.63
Sikandarpur,IN,1650139455,26.05,84.05,302.97,11,24,2.44
Kirkwall,GB,1650139455,58.9848,-2.9587,281.18,100,20,7.2
Mt. Pleasant,US,1650139455,32.7941,-79.8626,296.47,85,75,4.63
Faranah,GN,1650139456,10.0404,-10.7434,304.67,23,18,2.1
Lake Shasta,US,1650139456,40.6804,-122.3708,288.51,33,52,1.43
Yar-Sale,RU,1650139457,66.8333,70.8333,262.88,91,100,6.9
Mahuva,IN,1650139457,21.0914,71.7622,301.37,50,0,3.44
Muscat,OM,1650139458,23.6139,58.5922,305.16,31,5,1.89
Nanortalik,GL,1650139458,60.1432,-45.2371,272.76,80,7,4.39
Muravlenko,RU,1650139459,63.7898,74.523,264.71,94,99,6.63
Nuuk,GL,1650139039,64.1835,-51.7216,269.75,63,14,4.47
Asheboro,US,1650139205,35.7079,-79.8136,294.97,53,100,2.57
Concordia,AR,1650139459,-31.393,-58.0209,295.25,57,18,4.92
Juneau,US,1650139206,58.3019,-134.4197,277.9,76,100,0.23
Carnarvon,AU,1650139460,-24.8667,113.6333,297.19,73,31,5.66
Arys,KZ,1650139460,42.4252,68.795,292.4,40,100,2.41
Powell River,CA,1650139461,49.8496,-124.5361,283.12,43,89,3.01
Coquimbo,CL,1650139461,-29.9533,-71.3436,289.0,77,20,5.14
Tecozautla,MX,1650139462,20.5333,-99.6333,305.28,18,8,0.69
Petropavlovsk-Kamchatskiy,RU,1650139462,53.0452,158.6483,269.48,68,0,2.0
Mayo,US,1650139462,38.8876,-76.5119,297.23,44,20,7.72
Arica,CL,1650139463,-18.475,-70.3042,293.28,60,0,6.69
Yinchuan,CN,1650139463,38.4681,106.2731,281.48,67,100,4.54
Dandong,CN,1650139464,40.1292,124.3947,281.42,47,0,1.82
Tayshet,RU,1650139464,55.9342,98.0044,275.19,93,100,2.1
Henties Bay,NA,1650139465,-22.116,14.2845,289.07,81,20,2.74
Colombo,LK,1650139168,6.9319,79.8478,300.12,82,24,3.48
Kloulklubed,PW,1650139465,7.0419,134.2556,300.99,73,38,0.65
Rio Grande,BR,1650139466,-32.035,-52.0986,294.23,63,95,3.84
Puerto Escondido,MX,1650139466,15.85,-97.0667,304.61,66,0,5.66
Lázaro Cárdenas,MX,1650139467,17.9583,-102.2,301.82,53,28,4.83
San Policarpo,PH,1650139467,12.1791,125.5072,299.77,78,93,3.54
Stokmarknes,NO,1650139467,68.5646,14.9108,277.14,100,100,1.03
Manacapuru,BR,1650139468,-3.2997,-60.6206,301.46,78,56,0.63
Taksimo,RU,1650139468,56.3444,114.8794,268.02,86,100,0.58
Port Blair,IN,1650139469,11.6667,92.75,301.73,66,65,1.25
Mitú,CO,1650139469,1.1983,-70.1733,298.65,83,100,0.68
Clyde River,CA,1650139470,70.4692,-68.5914,253.28,77,100,1.54
Killam,CA,1650139223,52.7834,-111.8518,274.07,41,100,3.18
Lyubim,RU,1650139470,58.3625,40.6843,271.43,78,8,3.21
Urucará,BR,1650139471,-2.5364,-57.76,299.1,94,100,0.83
Zhicheng,CN,1650139471,30.2956,111.5047,284.64,75,100,1.46
Dzaoudzi,YT,1650139472,-12.7887,45.2699,301.09,89,0,3.09
Bone,DE,1650139472,51.9669,12.1396,276.64,55,26,3.41
Faro,PT,1650139473,37.0194,-7.9322,293.05,64,0,3.09
Laas,IT,1650139473,46.6166,10.7002,276.14,93,30,3.32
Sos'va,RU,1650139473,59.1766,61.8558,271.5,85,26,4.42
Dingle,PH,1650138915,10.9995,122.6711,297.37,90,37,2.17
Methven,NZ,1650139474,-43.6333,171.65,282.05,97,100,0.89
North Branch,US,1650139231,45.5113,-92.9802,277.09,51,100,5.36
Orsha,BY,1650139475,54.5153,30.4053,274.46,80,100,6.55
Jingdezhen,CN,1650139475,29.2947,117.2079,283.09,89,97,1.24
Mattru,SL,1650139475,7.6244,-11.8332,300.28,67,100,2.19
Naze,JP,1650139476,28.3667,129.4833,288.91,65,77,2.51
Rawson,AR,1650139476,-43.3002,-65.1023,288.22,53,0,5.39
Harrismith,ZA,1650139477,-28.2728,29.1295,280.95,97,100,2.19
Coahuayana Viejo,MX,1650139477,18.7333,-103.6833,305.56,42,76,3.75
Esim,GH,1650139047,4.8699,-2.2405,296.9,95,100,4.33
Husavik,IS,1650139478,66.0449,-17.3389,280.02,84,100,5.88
Tadine,NC,1650139478,-21.55,167.8833,298.12,81,0,2.65
Cap Malheureux,MU,1650139294,-19.9842,57.6142,298.41,83,11,3.58
Sisimiut,GL,1650139479,66.9395,-53.6735,267.97,53,45,3.33
Bahía Solano,CO,1650139480,6.2262,-77.4044,299.69,88,99,4.99
Pangody,RU,1650139480,65.85,74.4859,262.88,93,100,6.9
Kapit,MY,1650139481,2.0167,112.9333,296.21,99,100,0.26
Marabu,MY,1650139481,4.4148,114.0089,297.93,89,100,1.85
Katangli,RU,1650139482,51.7102,143.2326,270.72,93,100,5.98
Nizhniy Odes,RU,1650139482,63.6445,54.856,264.21,96,69,1.39
Rangāpāra,IN,1650139482,26.8167,92.65,293.78,93,3,2.06
Leh,IN,1650139483,34.1667,77.5833,275.14,44,0,2.71
Santa Cruz de la Sierra,BO,1650139204,-17.8,-63.1667,297.41,41,29,2.46
Vendas Novas,PT,1650139483,38.6771,-8.4579,289.9,66,19,3.78
Halifax,CA,1650139318,44.6453,-63.5724,285.56,55,100,6.26
Levanger,NO,1650139484,63.7464,11.2996,281.18,89,9,1.83
Vanavara,RU,1650139145,60.34,102.2797,277.12,96,100,4.24
Arrondissement du Havre,FR,1650139485,49.5833,0.3333,286.14,67,0,3.6
Champerico,GT,1650139485,14.3,-91.9167,304.35,60,22,6.59
Matara,LK,1650139486,5.9485,80.5353,299.65,85,68,1.61
Rafai,CF,1650139486,4.95,23.9167,294.84,94,85,1.88
Srednekolymsk,RU,1650139487,67.45,153.6833,256.34,100,100,1.69
Candolim,IN,1650139487,15.5181,73.7626,301.3,74,85,1.21
Borovoy,RU,1650139488,55.4333,86.0833,283.75,37,0,2.0
Kavaratti,IN,1650139488,10.5669,72.642,301.78,74,29,1.98
Fortuna,US,1650139374,40.5982,-124.1573,285.0,58,40,5.14
Colônia Leopoldina,BR,1650139489,-8.9089,-35.725,300.16,80,63,4.35
Duku,NG,1650139489,11.2361,4.9073,306.98,36,98,1.37
Laramie,US,1650139303,41.3114,-105.5911,282.85,33,100,12.35
Snyder,US,1650139490,32.7179,-100.9176,293.35,30,0,5.14
Talnakh,RU,1650139490,69.4865,88.3972,264.96,92,100,3.31
High Level,CA,1650139491,58.5169,-117.136,271.65,90,100,2.78
Palāsa,IN,1650139491,18.7667,84.4167,299.08,83,41,3.61
Polokwane,ZA,1650139257,-23.9045,29.4688,287.98,88,100,6.81
Pierre,US,1650139492,44.3683,-100.351,280.76,34,0,4.02
Ōiso,JP,1650139492,35.3031,139.3028,282.82,51,100,3.31
Nhamundá,BR,1650139493,-2.1861,-56.7131,300.52,85,100,0.68
Tevaitoa,PF,1650139493,-16.7833,-151.5,300.61,72,10,6.53
Görele,TR,1650139494,41.0308,39.0031,284.65,75,3,2.76
Kashgar,CN,1650139494,39.4547,75.9797,287.57,21,9,0.51
Port Hardy,CA,1650139495,50.6996,-127.4199,279.48,60,2,2.68
Hobyo,SO,1650139495,5.3505,48.5268,301.42,75,56,8.11
Chimbote,PE,1650139496,-9.0853,-78.5783,295.22,72,88,5.41
Hengyang,CN,1650139496,26.8881,112.615,283.51,92,100,1.72
Shimoda,JP,1650138948,34.6667,138.95,282.65,80,100,4.97
Katherine,AU,1650139497,-14.4667,132.2667,294.33,83,47,1.54
Pemba,MZ,1650139497,-12.974,40.5178,299.9,83,1,5.78
Inhambane,MZ,1650139344,-23.865,35.3833,296.22,88,98,3.59
Havre-St-Pierre,CA,1650139498,50.2334,-63.5986,275.84,76,79,8.66
Susanville,US,1650139498,40.4163,-120.653,280.74,86,94,5.45
Darhan,MN,1650139499,49.4867,105.9228,278.71,46,11,0.94
Muncar,ID,1650139499,-8.4333,114.3333,297.32,92,88,1.18
Nioro,GM,1650139500,13.35,-15.75,302.04,32,13,4.76
Nizhniy Tsasuchey,RU,1650139500,50.5167,115.1333,272.27,45,85,3.07
Wuwei,CN,1650139500,37.9281,102.6414,279.26,41,100,2.2
Portsmouth,GB,1650139501,50.799,-1.0913,284.49,77,71,0.45
Pahrump,US,1650139501,36.2083,-115.9839,296.32,22,0,8.49
Alcamo,IT,1650139502,37.9983,12.9565,288.01,76,100,1.22
Nouakchott,MR,1650139503,18.0858,-15.9785,290.11,86,1,5.62
Malpe,IN,1650139504,13.35,74.7167,298.76,81,39,1.52
Kabare,CD,1650139505,-2.4683,28.8242,288.93,96,100,0.57
Eyl,SO,1650139505,7.9803,49.8164,300.68,76,4,4.12
Fort Nelson,CA,1650139223,58.8053,-122.7002,265.92,63,75,2.57
Sayyan,YE,1650139089,15.1718,44.3244,290.44,41,2,0.56
Kyren,RU,1650139506,51.6828,102.1408,275.25,61,65,1.38
Hue,VN,1650139507,16.4667,107.6,299.21,89,40,1.03
Pisco,PE,1650139507,-13.7,-76.2167,295.18,68,0,10.8
Gorontalo,ID,1650139507,0.5412,123.0595,296.71,96,89,1.76
Berezovyy,RU,1650139508,51.6667,135.7,270.25,95,100,3.23
Garissa,KE,1650139508,-0.4536,39.6401,300.93,64,100,8.57
Sharjah city,AE,1650139509,25.3573,55.4033,304.31,42,0,3.6
Evensk,RU,1650139509,61.95,159.2333,268.75,81,100,2.91
Pachino,IT,1650139510,36.7186,15.0907,286.24,88,84,4.46
Chabahar,IR,1650139510,25.2919,60.643,301.4,67,10,4.43
Seoul,KR,1650139033,37.5683,126.9778,277.31,84,0,3.6
Bulgan,MN,1650139511,48.8125,103.5347,274.84,56,15,1.77
Buraidah,SA,1650139511,26.326,43.975,298.56,19,0,5.66
Nísia Floresta,BR,1650139512,-6.0911,-35.2086,303.6,77,90,3.28
Ulagan,RU,1650139512,50.6321,87.9563,273.51,76,6,1.38
Marawi,PH,1650139513,7.9986,124.2928,293.2,93,17,0.75
San Quintín,MX,1650139513,30.4833,-115.95,291.95,65,1,10.94
Yangi Marg`ilon,UZ,1650139514,40.4272,71.7189,294.67,20,6,1.55
Port Hawkesbury,CA,1650139514,45.6169,-61.3485,288.37,20,0,14.4
Vung Tau,VN,1650139265,10.346,107.0843,300.26,77,9,4.52
Sri Aman,MY,1650139515,1.2376,111.4621,296.17,99,100,0.36
Ponce,PR,1650139434,18.073,-66.6185,299.33,76,100,5.71
Ambatondrazaka,MG,1650139516,-17.8333,48.4167,292.94,83,86,3.15
Qasigiannguit,GL,1650139516,68.8193,-51.1922,265.29,83,8,1.45
Lata,PT,1650139516,40.1629,-8.3327,289.77,87,20,1.39
Ouésso,CG,1650139517,1.6136,16.0517,299.04,72,99,0.7
Ilebo,CD,1650139517,-4.3167,20.5833,295.79,94,100,0.67
Dodge City,US,1650139518,37.7528,-100.0171,285.77,31,0,8.23
Zemio,CF,1650139518,5.0314,25.1361,294.35,93,100,1.42
Houma,US,1650139519,29.5958,-90.7195,302.3,73,32,4.02
Libertad,PH,1650139519,8.9442,125.5019,296.19,96,64,1.82
Markova,UA,1650139519,48.6758,24.4138,273.99,87,100,2.98
Roura,GF,1650139520,4.7263,-52.3274,302.1,65,75,5.14
Oddur,SO,1650139520,4.1213,43.8894,300.14,62,92,5.83
Honiara,SB,1650139521,-9.4333,159.95,298.27,86,100,1.86
Merauke,ID,1650139521,-8.4667,140.3333,298.27,90,100,3.8
Kommunisticheskiy,RU,1650139522,61.6789,64.4819,270.57,96,100,0.81
Zliten,LY,1650139522,32.4674,14.5687,289.61,83,22,7.28
Chanute,US,1650139523,37.6792,-95.4572,288.92,27,100,7.2
Moroni,KM,1650139523,-11.7022,43.2551,299.77,79,32,1.74
La Ronge,CA,1650139524,55.1001,-105.2842,271.07,70,100,2.44
Moyale,KE,1650139524,3.5167,39.0584,295.65,60,59,1.29
Yecla,ES,1650139524,38.6137,-1.1147,288.59,47,18,1.82
Storslett,NO,1650139525,69.7678,21.0247,281.15,66,20,7.72
Marrakesh,MA,1650139394,31.6315,-8.0083,302.19,17,0,2.06
Kieta,PG,1650139525,-6.2167,155.6333,298.95,84,100,0.18
Poquoson,US,1650139315,37.1224,-76.3458,296.21,60,20,5.66
West Point,US,1650139526,33.6076,-88.6503,291.19,97,100,1.54
Rocha,UY,1650139526,-34.4833,-54.3333,292.3,59,22,3.84
Kamaishi,JP,1650139527,39.2667,141.8833,276.91,78,2,3.23
Ambanja,MG,1650139527,-13.6833,48.45,297.97,90,19,1.33
Talara,PE,1650139528,-4.5772,-81.2719,300.57,54,0,6.69
Jijiga,ET,1650139528,9.35,42.8,293.92,65,96,3.04
Carauari,BR,1650139529,-4.8828,-66.8958,303.71,61,94,0.72
Cocobeach,GA,1650139529,1.0002,9.5823,299.07,87,100,1.89
